案件編號,標題,地址,房型,坪數,樓層,租金,押金,捷運站,聯絡人,截圖檔名,頁碼,座標,執行日期,緯度,經度
20435411,捷運起站有座位+大窗採光通風好+綠意靜巷+生活機能超便利,中和區景新街496巷,2房,13.0,4F/5F,19000,,三介廟站 178公尺,代理人:李小姐,591_20435411.png,6,"24°59'12""N 121°30'52""E",2026-01-06,24.986666666666668,121.51444444444445
20354126,近永平學區巷弄安靜超商便利,近永平學區巷弄安靜超商便利,3房,29.0,5F/5F,21000,,保順里[新巴士]站 84公尺,屋主:黃先生,591_20354126.png,6,"25°0'26""N 121°30'5""E",2026-01-06,25.00722222222222,121.50138888888888
20384322,♥︎可租補♥︎景平捷運站♥︎台電♥︎大空間兩房♥︎,中和區大勇街29巷,2房,20.0,4F/5F,22979,,智光商職站 177公尺,仲介:許小姐,591_20384322.png,6,"24°59'40""N 121°30'55""E",2026-01-06,24.994444444444447,121.51527777777778
20346918,"優雅二房一衛一廳一陽台,採光,通風良好",中和區秀朗路三段128巷17弄5號,2房,18.0,5F/5F,12000,,,屋主:陳小姐,591_20346918.png,6,"0°0'0""N 0°0'0""E",2026-01-06,,
20390223,小家庭.方正三房💘夫妻首選租金可優惠.全新整修,中和區中山路二段,3房,25.41,4F/5F,22000,,中和站 313公尺,屋主:林先生,591_20390223.png,6,"25°0'8""N 121°29'56""E",2026-01-06,25.002222222222223,121.49888888888889
20403493,中和圓通書香學區近公園美寓,中和區圓通路393巷19弄4號,3房,26.0,4F/5F,20000,,中和站 97公尺,屋主:何女士,591_20403493.png,6,"24°59'22""N 121°29'25""E",2026-01-06,24.989444444444445,121.49027777777778
20352568,"租補~前後,陽台~採光佳,台水台電",中和區員山路150巷,2房,30.0,5F/5F,22800,,,代理人:黃太太,591_20352568.png,6,"0°0'0""N 0°0'0""E",2026-01-06,,
20456069,可租補♥︎橋和捷運站♥︎遠東世紀♥︎兩房機車族首選♥︎,中和區中正路839巷2號,2房,20.0,5F/5F,19910,,中原站 483公尺,仲介:許小姐,591_20456069.png,6,"25°0'15""N 121°29'3""E",2026-01-06,25.004166666666666,121.48416666666667
20433383,宜安路邊間美妝三房(家具家電可談~可租補),中和區宜安路,3房,31.0,4F/5F,31000,,潭墘站 121公尺,代理人:陳小姐,591_20433383.png,6,"24°59'54""N 121°30'47""E",2026-01-06,24.998333333333335,121.51305555555555
20228766,捷運永安市場站.明亮採光兩房一廳.可貓,中和區南工路2巷,2房,18.0,4F/4F,25888,,南山高中站 24公尺,代理人:曾小姐,591_20228766.png,6,"25°0'0""N 121°30'20""E",2026-01-06,25.0,121.50555555555556
20401113,捷運站旁整層住家3樓,中和區景平路64巷,3房,22.6,3F/4F,32000,,秀朗橋站 313公尺,屋主:王先生,591_20401113.png,6,"24°59'29""N 121°31'20""E",2026-01-06,24.99138888888889,121.52222222222223
20371121,可租補✿台電✿捷運中原站✿遠東世紀廣場✿,中和區民樂路80巷,2房,20.0,5F/5F,18985,,平河里站 84公尺,屋主:賴先生,591_20371121.png,6,"25°0'4""N 121°29'3""E",2026-01-06,25.00111111111111,121.48416666666667
20412030,♥︎可租補♥︎景平捷運站♥︎台電♥︎大空間一房一廳♥︎大套房,中和區大勇街29巷,1房,15.0,4F/5F,21979,,智光商職站 177公尺,仲介:許小姐,591_20412030.png,6,"24°59'40""N 121°30'55""E",2026-01-06,24.994444444444447,121.51527777777778
20377386,可租補✿台電✿華中橋✿捷運中和站✿樓下就有7-11,中和區景平路,2房,16.0,4F/5F,19333,,中和站 268公尺,仲介:麥先生,591_20377386.png,6,"25°0'17""N 121°29'47""E",2026-01-06,25.004722222222224,121.49638888888889
20336440,"中和環球購物~大空間2陽台,傢俱家電齊全",中和區民治街132巷,3房,35.0,5F/5F,28800,,民享里[新巴士]站 119公尺,代理人:黃太太,591_20336440.png,6,"25°0'8""N 121°28'30""E",2026-01-06,25.002222222222223,121.47500000000001
20328333,全新裝潢/可貓/邊間靜巷2陽台3面採光/家具齊/包網路第四台,中和區員山路327巷55號,3房,26.0,5F/5F,22900,,員山站 219公尺,屋主:陳女士,591_20328333.png,6,"25°0'8""N 121°28'45""E",2026-01-06,25.002222222222223,121.47916666666667
20296971,可租補♥︎台電♥︎民樂停車場♥︎遠東世紀♥︎,中和區新生街177巷,2房,20.0,4F/4F,20951,,平河里站 54公尺,屋主:賴先生,591_20296971.png,6,"25°0'3""N 121°29'4""E",2026-01-06,25.000833333333333,121.48444444444445
20301213,😍中和中正路多功能一樓😍太平洋房屋優質團隊,中和區中正路637巷,1房,28.0,1F/5F,32000,,瓏山林台北中和飯店站 79公尺,仲介:蘇小姐,591_20301213.png,6,"24°59'41""N 121°29'5""E",2026-01-06,24.994722222222222,121.48472222222222
20457222,📒中和站/免爬高二房/流理台/獨洗/可寵/租補203,中和區中山路二段,2房,14.0,2F/4F,21000,,南山高中(中山路)站 39公尺,仲介:顏小姐,591_20457222.png,6,"25°0'12""N 121°30'7""E",2026-01-06,25.003333333333334,121.50194444444445
20333261,鄰近興南夜市近捷運生活機能佳🅰️室非頂加非巷弄,鄰近興南夜市近捷運生活機能佳🅰️室非頂加非巷弄,2房,15.0,5F/5F,26800,,幸福市場站 82公尺,仲介:彭小姐,591_20333261.png,6,"24°59'15""N 121°30'42""E",2026-01-06,24.9875,121.51166666666667
20346103,🔴可租補入戶中和區🔴連城路🍎重新裝潢美寓,🔴可租補入戶中和區🔴連城路🍎重新裝潢美寓,1房,15.0,4F/5F,17000,,連城路站 59公尺,仲介:陳女士,591_20346103.png,6,"24°59'45""N 121°28'56""E",2026-01-06,24.995833333333334,121.48222222222222
20295985,可租補入籍/近中和站/好市多/中和國小/家樂福/格局採光超好,中和區連城路23巷,4房,30.21,2F/4F,34999,,,仲介:邱小姐,591_20295985.png,6,"0°0'0""N 0°0'0""E",2026-01-06,,
20436200,可租補入籍/近中和站/好市多/中和國小/家樂福/格局採光超好,中和區連城路23巷,4房,30.21,2F/4F,34999,,中和站 378公尺,仲介:邱小姐,591_20436200.png,6,"25°0'4""N 121°29'57""E",2026-01-06,25.00111111111111,121.49916666666667
20306019,5+6樓大空間全新粉刷乾淨舒適,中和區連城路,4房,55.0,5F/5F,29000,,中和高中(員山路)站 92公尺,代理人:李小姐,591_20306019.png,6,"24°59'44""N 121°28'54""E",2026-01-06,24.995555555555555,121.48166666666667
20424538,永安捷運站四號公園美妝5樓,中和區保健路106巷,2房,24.0,,19800,,安樂路口站 154公尺,仲介:沈小姐,591_20424538.png,6,"24°59'42""N 121°30'40""E",2026-01-06,24.995,121.5111111111111
20417318,【社宅/可租補】間間有窗大坪數3房可貓/近中和環球商圈,中和區自治街,3房,29.0,5F/5F,23000,,民享市場[新巴士]站 97公尺,代理人:徐先生,591_20417318.png,6,"25°0'11""N 121°28'29""E",2026-01-06,25.003055555555555,121.47472222222223
20315044,比漾商圈🍊近捷運美妝2房☎️小吳,中和區水源路29巷,2房,12.0,5F/5F,23500,,,仲介:吳先生,591_20315044.png,6,"0°0'0""N 0°0'0""E",2026-01-06,,
20408149,★中和國小附近3房★免收服務費★可租金補助★,中和區泰和街,3房,29.88,5F/5F,25900,,中和站 423公尺,仲介:林先生,591_20408149.png,6,"25°0'1""N 121°29'57""E",2026-01-06,25.00027777777778,121.49916666666667
20456230,也太方便了吧，南勢角捷運站就在旁邊,中和區興南路一段56巷,3房,22.12,4F/5F,26000,,南勢角站 86公尺,仲介:翁先生,591_20456230.png,6,"24°59'29""N 121°30'41""E",2026-01-06,24.99138888888889,121.51138888888889
20433552,🏠中和區｜鄰近興南夜市公寓二房出租,中和區景新街295巷,2房,18.0,5F/5F,24888,,南勢角站 411公尺,仲介:林小姐,591_20433552.png,6,"24°59'37""N 121°30'39""E",2026-01-06,24.99361111111111,121.51083333333334
20424754,竣羽★➲秒殺超寬金店面~店住辦~特價4.4萬竣羽幫您租好房,中和區大仁街20巷,4房,33.0,1F/5F,44000,,景平路景德街口站 93公尺,仲介:蔡竣羽,591_20424754.png,6,"24°59'34""N 121°31'10""E",2026-01-06,24.99277777777778,121.51944444444445
20390145,錦和~超便宜2樓~房東便宜租~找竣羽快速成交,中和區連城路347巷,1房,21.56,2F/4F,20000,,中和國民運動中心站 49公尺,仲介:蔡竣羽,591_20390145.png,6,"24°59'40""N 121°29'18""E",2026-01-06,24.994444444444447,121.48833333333333
20390130,竣羽★➲秒殺超寬金店面~店住辦~特價4.4萬竣羽幫您租好房,中和區大仁街20巷,4房,33.0,1F/5F,44000,,,仲介:蔡竣羽,591_20390130.png,6,"0°0'0""N 0°0'0""E",2026-01-06,,
20368210,亞東醫院，可租補2房，台水電，可寵物，有廚房陽台,中和區華福街,2房,22.42,3F/4F,32000,,,仲介:蕭先生,591_20368210.png,6,"0°0'0""N 0°0'0""E",2026-01-06,,
20455914,可租屋補助●中和環球商圈●空屋●前後陽台●,中和區民享街114巷21號,2房,33.28,3F/5F,24000,,自強國小(莒光路)站 163公尺,仲介:陳先生,591_20455914.png,6,"24°59'58""N 121°28'25""E",2026-01-06,24.999444444444446,121.47361111111111
20381313,🔥免爬高機車位住家1樓+雙捷運景平站/秀朗橋站,中和區大智街,3房,21.48,1F/5F,32000,,景平站 326公尺,仲介:陳小姐,591_20381313.png,6,"24°59'31""N 121°31'11""E",2026-01-06,24.991944444444446,121.51972222222223
20436863,中和站可寵可租補獨立洗衣機低樓層大二房,中和區中山路二段,2房,15.0,2F/5F,21000,,南山高中(中山路)站 42公尺,仲介:施先生,591_20436863.png,6,"25°0'12""N 121°30'7""E",2026-01-06,25.003333333333334,121.50194444444445
20455485,鄰近中和景平站大三房｜免服務費｜可申請租補入籍｜可養貓小型犬,中和區大勇街60巷,3房,20.0,4F/4F,25500,,秀山站 119公尺,代理人:莊先生,591_20455485.png,6,"24°59'41""N 121°31'8""E",2026-01-06,24.994722222222222,121.51888888888888
20455447,中和國光街裝潢兩房｜生活便利×通勤快,中和區國光街,2房,15.9,4F/5F,22000,,福德里站 166公尺,仲介:莊先生,591_20455447.png,6,"25°0'4""N 121°27'57""E",2026-01-06,25.00111111111111,121.46583333333334
20434094,稀有一樓孝親房可寵可補助,中和區忠孝街11巷,2房,30.0,1F/4F,28000,,臺科大華夏校區站 85公尺,代理人:林小姐,591_20434094.png,6,"24°59'1""N 121°30'34""E",2026-01-06,24.983611111111113,121.50944444444444
20420919,雙和醫院♥️一房一廳♥️低樓層,中和區圓通路242巷,1房,12.0,,12000,兩個月,力行里站 75公尺,仲介:租屋專員,591_20420919.png,6,"24°59'37""N 121°29'46""E",2026-01-06,24.99361111111111,121.4961111111111
20435905,捷運景安站、家庭首選、台水台電、機能好、可貓、可租補,中和區圓通路141巷,3房,24.28,5F/5F,28000,兩個月,景安站 549公尺,仲介:專員劉先生,591_20435905.png,6,"24°59'46""N 121°30'1""E",2026-01-06,24.996111111111112,121.50027777777778
20420852,捷運秀朗橋站、家庭首選、低樓層、台水台電、天然瓦斯、可租補,中和區秀朗路三段128巷,4房,28.98,3F/4F,30000,兩個月,秀朗橋站 301公尺,仲介:租管劉先生,591_20420852.png,6,"24°59'35""N 121°31'29""E",2026-01-06,24.993055555555557,121.52472222222222
20351244,捷運秀朗橋♥️秀山國小♥️可寵3房2衛/租補,中和區秀朗路三段128巷,3房,40.46,4F/4F,28000,兩個月,秀朗橋站 374公尺,仲介:租管劉先生,591_20351244.png,6,"24°59'34""N 121°31'21""E",2026-01-06,24.99277777777778,121.5225
20315412,捷運中和/近大潤發/精美兩房/採光好,中和區莊敬路49巷,2房,18.0,3F/5F,25000,兩個月,,仲介:租屋專員,591_20315412.png,6,"0°0'0""N 0°0'0""E",2026-01-06,,
20371095,MRT南勢角.靜巷.大空間,中和區興南路二段54巷,3房,26.98,5F/5F,26800,,,仲介:葉小姐,591_20371095.png,6,"0°0'0""N 0°0'0""E",2026-01-06,,
20380368,中和區5房使用空間大★員工宿舍首選★可穩定長租優先,中和區中山路二段2巷,5房,54.0,5F/5F,20000,,保順里[新巴士]站 84公尺,仲介:李先生,591_20380368.png,6,"25°0'26""N 121°30'5""E",2026-01-06,25.00722222222222,121.50138888888888
